{
"type": "FeatureCollection",
"name": "Police_Departments",
"crs": { "type": "name", "properties": { "name": "urn:ogc:def:crs:OGC:1.3:CRS84" } },
"features": [
{ "type": "Feature", "properties": { "OBJECTID": 1, "MAP_SHEET": "1841.19", "AGENCY": "Wake Forest", "SITE_ADDRE": "225 S Taylor St", "MUNICIPALI": "Wake Forest", "TYPE_STATI": "Main", "PIN": "1841507823", "ZND_MAP": " ", "ZRD_MAP": " ", "ZTH_MAP": " ", "F_ID": null }, "geometry": { "type": "Point", "coordinates": [ -78.507357729626804, 35.9767141386343 ] } },
{ "type": "Feature", "properties": { "OBJECTID": 2, "MAP_SHEET": "2705.14", "AGENCY": "Zebulon", "SITE_ADDRE": "1001 N Arendell Ave", "MUNICIPALI": "Zebulon", "TYPE_STATI": "Zebulon", "PIN": " ", "ZND_MAP": " ", "ZRD_MAP": " ", "ZTH_MAP": " ", "F_ID": null }, "geometry": { "type": "Point", "coordinates": [ -78.320034130799897, 35.831221454549201 ] } },
{ "type": "Feature", "properties": { "OBJECTID": 3, "MAP_SHEET": "1784.19", "AGENCY": "Wendell", "SITE_ADDRE": "15 East 4th St", "MUNICIPALI": "Wendell", "TYPE_STATI": "Wendell", "PIN": "1784701560", "ZND_MAP": " ", "ZRD_MAP": " ", "ZTH_MAP": " ", "F_ID": null }, "geometry": { "type": "Point", "coordinates": [ -78.368883687625996, 35.783129738619699 ] } },
{ "type": "Feature", "properties": { "OBJECTID": 4, "MAP_SHEET": "1769.17", "AGENCY": "Rolesville", "SITE_ADDRE": "204 Southtown Cir", "MUNICIPALI": "Rolesville", "TYPE_STATI": "Rolesville", "PIN": "1769014576", "ZND_MAP": " ", "ZRD_MAP": " ", "ZTH_MAP": " ", "F_ID": null }, "geometry": { "type": "Point", "coordinates": [ -78.469695852106099, 35.9170253308124 ] } },
{ "type": "Feature", "properties": { "OBJECTID": 5, "MAP_SHEET": "1754.05", "AGENCY": "Knightdale", "SITE_ADDRE": "979 Steeple Square Ct", "MUNICIPALI": "Knightdale", "TYPE_STATI": "Knightdale", "PIN": "1754178724", "ZND_MAP": " ", "ZRD_MAP": " ", "ZTH_MAP": " ", "F_ID": null }, "geometry": { "type": "Point", "coordinates": [ -78.488212333134001, 35.803563342321098 ] } },
{ "type": "Feature", "properties": { "OBJECTID": 6, "MAP_SHEET": "1717.08", "AGENCY": "Raleigh", "SITE_ADDRE": "8320 Litchford Rd", "MUNICIPALI": "Raleigh", "TYPE_STATI": "Northeast District", "PIN": "1717893859", "ZND_MAP": "1718.20", "ZRD_MAP": " ", "ZTH_MAP": " ", "F_ID": null }, "geometry": { "type": "Point", "coordinates": [ -78.599223866730497, 35.892389672277901 ] } },
{ "type": "Feature", "properties": { "OBJECTID": 7, "MAP_SHEET": "1713.09", "AGENCY": "Raleigh", "SITE_ADDRE": "4501 Atlantic Ave", "MUNICIPALI": "Raleigh", "TYPE_STATI": "Detective Division", "PIN": "1713050525", "ZND_MAP": "1703.52", "ZRD_MAP": "1703.16", "ZTH_MAP": "1703.13", "F_ID": null }, "geometry": { "type": "Point", "coordinates": [ -78.601928694724094, 35.844948199027797 ] } },
{ "type": "Feature", "properties": { "OBJECTID": 8, "MAP_SHEET": "1712.06", "AGENCY": "Raleigh", "SITE_ADDRE": "1601-30 Cross Link Rd", "MUNICIPALI": "Raleigh", "TYPE_STATI": "Southeast District", "PIN": "1712492892", "ZND_MAP": "1713.18", "ZRD_MAP": " ", "ZTH_MAP": " ", "F_ID": null }, "geometry": { "type": "Point", "coordinates": [ -78.614828342438202, 35.755085782422398 ] } },
{ "type": "Feature", "properties": { "OBJECTID": 9, "MAP_SHEET": "1711.18", "AGENCY": "Garner", "SITE_ADDRE": "900-C Seventh Ave", "MUNICIPALI": "Garner", "TYPE_STATI": "Garner", "PIN": "1711227093", "ZND_MAP": " ", "ZRD_MAP": " ", "ZTH_MAP": " ", "F_ID": null }, "geometry": { "type": "Point", "coordinates": [ -78.620082682191907, 35.705597247936801 ] } },
{ "type": "Feature", "properties": { "OBJECTID": 10, "MAP_SHEET": "1703.33", "AGENCY": "Raleigh", "SITE_ADDRE": "601 Hutton St", "MUNICIPALI": "Raleigh", "TYPE_STATI": "Southwest District", "PIN": "1703680600", "ZND_MAP": " ", "ZRD_MAP": " ", "ZTH_MAP": " ", "F_ID": null }, "geometry": { "type": "Point", "coordinates": [ -78.7014168775965, 35.790753343488703 ] } },
{ "type": "Feature", "properties": { "OBJECTID": 11, "MAP_SHEET": "1703.34", "AGENCY": "Wake County Sherif", "SITE_ADDRE": "330 South Salisbury St", "MUNICIPALI": "Raleigh", "TYPE_STATI": "Raleigh (Main)", "PIN": "1703675514", "ZND_MAP": " ", "ZRD_MAP": " ", "ZTH_MAP": " ", "F_ID": null }, "geometry": { "type": "Point", "coordinates": [ -78.640507033815197, 35.775986043375902 ] } },
{ "type": "Feature", "properties": { "OBJECTID": 12, "MAP_SHEET": "1703.10", "AGENCY": "Raleigh", "SITE_ADDRE": "218 W Cabarrus St", "MUNICIPALI": "Raleigh", "TYPE_STATI": "Downtown District", "PIN": "1703457939", "ZND_MAP": "1703.49", "ZRD_MAP": " ", "ZTH_MAP": " ", "F_ID": null }, "geometry": { "type": "Point", "coordinates": [ -78.643208357012199, 35.774637906601498 ] } },
{ "type": "Feature", "properties": { "OBJECTID": 13, "MAP_SHEET": "0786.07", "AGENCY": "Raleigh", "SITE_ADDRE": "8016 Glenwood Ave", "MUNICIPALI": "Raleigh", "TYPE_STATI": "Northwest District", "PIN": "0786781249", "ZND_MAP": " ", "ZRD_MAP": " ", "ZTH_MAP": " ", "F_ID": null }, "geometry": { "type": "Point", "coordinates": [ -78.726423303961099, 35.873550283516202 ] } },
{ "type": "Feature", "properties": { "OBJECTID": 14, "MAP_SHEET": "0773.19", "AGENCY": "Cary", "SITE_ADDRE": " ", "MUNICIPALI": "Cary", "TYPE_STATI": "CrossRoad Substations", "PIN": "0773712717", "ZND_MAP": " ", "ZRD_MAP": " ", "ZTH_MAP": " ", "F_ID": null }, "geometry": { "type": "Point", "coordinates": [ -78.740527908105406, 35.762284587904297 ] } },
{ "type": "Feature", "properties": { "OBJECTID": 15, "MAP_SHEET": "1841.19", "AGENCY": "Wake Forest", "SITE_ADDRE": "1988 S Main St", "MUNICIPALI": "Wake Forest", "TYPE_STATI": "Substation Two", "PIN": "1841507823", "ZND_MAP": " ", "ZRD_MAP": " ", "ZTH_MAP": " ", "F_ID": null }, "geometry": { "type": "Point", "coordinates": [ -78.5339691932232, 35.948955038880896 ] } },
{ "type": "Feature", "properties": { "OBJECTID": 16, "MAP_SHEET": "1841.19", "AGENCY": "Wake Forest", "SITE_ADDRE": "623 N Franklin St", "MUNICIPALI": "Wake Forest", "TYPE_STATI": "Substation Three", "PIN": "1841507823", "ZND_MAP": " ", "ZRD_MAP": " ", "ZTH_MAP": " ", "F_ID": null }, "geometry": { "type": "Point", "coordinates": [ -78.499590898057406, 35.984811893754298 ] } },
{ "type": "Feature", "properties": { "OBJECTID": 17, "MAP_SHEET": "1841.19", "AGENCY": "Wake Forest", "SITE_ADDRE": "215 N Allen Rd Apt 153", "MUNICIPALI": "Wake Forest", "TYPE_STATI": "Substation Four", "PIN": "1841507823", "ZND_MAP": " ", "ZRD_MAP": " ", "ZTH_MAP": " ", "F_ID": null }, "geometry": { "type": "Point", "coordinates": [ -78.501344931421102, 35.978449829813201 ] } },
{ "type": "Feature", "properties": { "OBJECTID": 18, "MAP_SHEET": "1703.35", "AGENCY": "Raleigh", "SITE_ADDRE": "6716 Six Forks Rd", "MUNICIPALI": "Raleigh", "TYPE_STATI": "Main Station Interim", "PIN": "1703773883", "ZND_MAP": "1703.34", "ZRD_MAP": " ", "ZTH_MAP": " ", "F_ID": null }, "geometry": { "type": "Point", "coordinates": [ -78.641428849881294, 35.872026189899898 ] } },
{ "type": "Feature", "properties": { "OBJECTID": 19, "MAP_SHEET": "1703.35", "AGENCY": "Raleigh", "SITE_ADDRE": "6716 Six Forks Rd", "MUNICIPALI": "Raleigh", "TYPE_STATI": "North District", "PIN": "1703773883", "ZND_MAP": "1703.34", "ZRD_MAP": " ", "ZTH_MAP": " ", "F_ID": null }, "geometry": { "type": "Point", "coordinates": [ -78.641611041314704, 35.872043483510097 ] } },
{ "type": "Feature", "properties": { "OBJECTID": 20, "MAP_SHEET": "0773.09", "AGENCY": "Cary", "SITE_ADDRE": "1105 Walnut St", "MUNICIPALI": "Cary", "TYPE_STATI": "Cary Towne Center  Substation", "PIN": "0773063845", "ZND_MAP": " ", "ZRD_MAP": " ", "ZTH_MAP": " ", "F_ID": null }, "geometry": { "type": "Point", "coordinates": [ -78.760332730250596, 35.772639433575002 ] } },
{ "type": "Feature", "properties": { "OBJECTID": 21, "MAP_SHEET": "0764.19", "AGENCY": "Cary", "SITE_ADDRE": "120 Wilkinson Ave", "MUNICIPALI": "Cary", "TYPE_STATI": "Cary (Main)", "PIN": "0764522331", "ZND_MAP": " ", "ZRD_MAP": " ", "ZTH_MAP": " ", "F_ID": null }, "geometry": { "type": "Point", "coordinates": [ -78.779494172268301, 35.789826512789801 ] } },
{ "type": "Feature", "properties": { "OBJECTID": 22, "MAP_SHEET": "0755.13", "AGENCY": "Morrisville", "SITE_ADDRE": "260-C Town Hall Dr", "MUNICIPALI": "Morrisville", "TYPE_STATI": "Morrisville", "PIN": "0755046455", "ZND_MAP": " ", "ZRD_MAP": " ", "ZTH_MAP": " ", "F_ID": null }, "geometry": { "type": "Point", "coordinates": [ -78.830842358037103, 35.823830119338901 ] } },
{ "type": "Feature", "properties": { "OBJECTID": 23, "MAP_SHEET": "0744.03", "AGENCY": "Cary", "SITE_ADDRE": "2101 Highhouse Rd", "MUNICIPALI": "Cary", "TYPE_STATI": "Substation", "PIN": "0744329183", "ZND_MAP": " ", "ZRD_MAP": " ", "ZTH_MAP": " ", "F_ID": null }, "geometry": { "type": "Point", "coordinates": [ -78.851621532763801, 35.789304096368497 ] } },
{ "type": "Feature", "properties": { "OBJECTID": 24, "MAP_SHEET": "0742.18", "AGENCY": "Apex", "SITE_ADDRE": "205 Saunders St", "MUNICIPALI": "Apex", "TYPE_STATI": "Apex", "PIN": "0742318352", "ZND_MAP": " ", "ZRD_MAP": " ", "ZTH_MAP": " ", "F_ID": null }, "geometry": { "type": "Point", "coordinates": [ -78.852008170415402, 35.731685270475197 ] } },
{ "type": "Feature", "properties": { "OBJECTID": 25, "MAP_SHEET": "0666.02", "AGENCY": "Fuquay-Varina", "SITE_ADDRE": "401 Old Honeycutt Rd", "MUNICIPALI": "Fuquay-Varina", "TYPE_STATI": "Fuquay-Varina", "PIN": "0666598593", "ZND_MAP": " ", "ZRD_MAP": " ", "ZTH_MAP": " ", "F_ID": null }, "geometry": { "type": "Point", "coordinates": [ -78.779137009891897, 35.589437702058497 ] } },
{ "type": "Feature", "properties": { "OBJECTID": 26, "MAP_SHEET": "0649.16", "AGENCY": "Holly Springs", "SITE_ADDRE": "110 W Ballentine St", "MUNICIPALI": "Holly Springs", "TYPE_STATI": "Holly Springs", "PIN": "0649922584", "ZND_MAP": "0649.20", "ZRD_MAP": " ", "ZTH_MAP": " ", "F_ID": null }, "geometry": { "type": "Point", "coordinates": [ -78.834294439656304, 35.650103410155502 ] } },
{ "type": "Feature", "properties": { "OBJECTID": 27, "MAP_SHEET": "1711.18", "AGENCY": "Garner", "SITE_ADDRE": "400 Aversboro Rd", "MUNICIPALI": "Garner", "TYPE_STATI": "Police Annex", "PIN": "1711227093", "ZND_MAP": " ", "ZRD_MAP": " ", "ZTH_MAP": " ", "F_ID": null }, "geometry": { "type": "Point", "coordinates": [ -78.620514509693095, 35.707394285930597 ] } },
{ "type": "Feature", "properties": { "OBJECTID": 28, "MAP_SHEET": "1711.18", "AGENCY": "Garner", "SITE_ADDRE": "120 E Main St", "MUNICIPALI": "Garner", "TYPE_STATI": "East District Substation", "PIN": "1711227093", "ZND_MAP": " ", "ZRD_MAP": " ", "ZTH_MAP": " ", "F_ID": null }, "geometry": { "type": "Point", "coordinates": [ -78.604749983625695, 35.706439947848303 ] } },
{ "type": "Feature", "properties": { "OBJECTID": 29, "MAP_SHEET": "1711.18", "AGENCY": "Garner", "SITE_ADDRE": "1809 Garner Station Blvd", "MUNICIPALI": "Garner", "TYPE_STATI": "West District Substation", "PIN": "1711227093", "ZND_MAP": " ", "ZRD_MAP": " ", "ZTH_MAP": " ", "F_ID": null }, "geometry": { "type": "Point", "coordinates": [ -78.659692282960506, 35.724286142420098 ] } }
]
}
